City,Latitude,Longitude,Temperature (max),Humidity,Cloudiness,Wind Speed,Country,Date
Torbay,47.6666,-52.7314,37.99,100,90,25.32,CA,1619841672
Bengkulu,-3.8004,102.2655,85.3,65,80,4.85,ID,1619841604
Kieta,-6.2167,155.6333,82.98,77,35,2.89,PG,1619841758
Rikitea,-23.1203,-134.9692,78.96,79,79,20.36,PF,1619841627
Tateyama,34.9833,139.8667,68.0,52,75,17.27,JP,1619841727
Qaanaaq,77.484,-69.3632,27.52,52,92,8.52,GL,1619841629
Nuevo Progreso,23.1667,-97.95,75.99,65,96,3.0,MX,1619841867
Ponta do Sol,32.6667,-17.1,57.99,58,100,3.0,PT,1619841621
Mataura,-46.1927,168.8643,55.99,73,65,4.0,NZ,1619841611
Rio Grande,-32.035,-52.0986,60.01,95,0,14.05,BR,1619841767
Ushuaia,-54.8,-68.3,37.4,93,75,59.84,AR,1619841598
Lebu,-37.6167,-73.65,55.76,95,100,17.07,CL,1619841727
Khatanga,71.9667,102.5,33.3,95,100,9.48,RU,1619841685
Araouane,18.9048,-3.5265,78.58,45,96,23.44,ML,1619841868
Provideniya,64.3833,-173.3,27.82,79,100,7.09,RU,1619841630
Port Alfred,-33.5906,26.891,57.78,81,5,12.93,ZA,1619841603
Cape Town,-33.9258,18.4232,57.99,82,0,9.22,ZA,1619841410
Saint-Philippe,-21.3585,55.7679,75.99,73,0,15.12,RE,1619841665
Barrow,71.2906,-156.7887,21.2,79,90,3.44,US,1619841626
Vaini,-21.2,-175.2,78.8,89,75,12.66,TO,1619841605
Guerrero Negro,27.9769,-114.0611,67.41,60,0,17.74,MX,1619841869
Busselton,-33.65,115.3333,66.0,69,98,5.7,AU,1619841600
Meulaboh,4.1363,96.1285,84.96,66,94,3.29,ID,1619841773
Paamiut,61.994,-49.6678,39.47,61,11,10.67,GL,1619841666
Bambous Virieux,-20.3428,57.7575,79.0,78,40,10.36,MU,1619841628
Albany,42.6001,-73.9662,41.0,69,90,4.0,US,1619841623
Sinnamary,5.3833,-52.95,75.24,93,100,6.76,GF,1619841870
Nikolskoye,59.7035,30.7861,39.99,86,0,4.47,RU,1619841599
Punta Arenas,-53.15,-70.9167,42.8,93,75,9.22,CL,1619841599
Airai,-8.9266,125.4092,75.27,48,38,3.74,TL,1619841601
Turia,46.0333,26.05,54.0,85,86,1.99,RO,1619841871
Thompson,55.7435,-97.8558,32.0,100,90,9.22,CA,1619841667
Arraial do Cabo,-22.9661,-42.0278,71.46,64,35,5.12,BR,1619841636
Ahome,25.9167,-109.1833,75.2,60,1,11.5,MX,1619841871
Vardø,70.3705,31.1107,32.41,88,100,17.47,NO,1619841872
Jamestown,42.097,-79.2353,41.0,56,90,17.27,US,1619841511
Butaritari,3.0707,172.7902,83.43,72,76,8.72,KI,1619841599
Hofn,64.2539,-15.2082,34.56,64,100,11.83,IS,1619841662
Hilo,19.7297,-155.09,80.6,61,90,10.36,US,1619841626
Sisimiut,66.9395,-53.6735,33.03,85,100,0.49,GL,1619841872
Shipitsyno,61.2806,46.5208,36.84,97,100,8.52,RU,1619841873
Lagoa,39.05,-27.9833,58.95,75,100,10.51,PT,1619841624
Tautira,-17.7333,-149.15,82.4,74,75,12.66,PF,1619841873
Ostrovnoy,68.0531,39.5131,19.69,74,99,5.59,RU,1619841705
Tuktoyaktuk,69.4541,-133.0374,21.2,79,20,10.36,CA,1619841640
Severo-Kuril'sk,50.6789,156.125,35.44,96,100,21.59,RU,1619841653
Hobart,-42.8794,147.3294,73.4,35,0,6.91,AU,1619841407
Manhattan,40.7834,-73.9662,48.2,53,20,19.57,US,1619841842
Longyearbyen,78.2186,15.6401,12.2,67,20,13.8,SJ,1619841669
Yellowknife,62.456,-114.3525,30.2,100,90,10.36,CA,1619841643
Saint Anthony,45.0205,-93.218,55.99,28,1,6.91,US,1619841714
Mackay,-21.15,149.2,77.0,69,40,23.02,AU,1619841748
Kargasok,59.0556,80.8572,44.01,58,31,13.94,RU,1619841874
Hithadhoo,-0.6,73.0833,84.06,71,82,6.53,MV,1619841681
Bluff,-46.6,168.3333,55.99,73,50,4.0,NZ,1619841678
Ubá,-21.12,-42.9428,62.01,98,77,3.51,BR,1619841875
Aripuanã,-9.1667,-60.6333,70.45,97,46,1.81,BR,1619841875
La Ronge,55.1001,-105.2842,59.0,33,27,8.05,CA,1619841785
Chui,-33.6971,-53.4616,59.83,95,100,6.78,UY,1619841631
Hermanus,-34.4187,19.2345,53.01,78,0,1.01,ZA,1619841635
Jumla,29.2747,82.1838,61.43,54,100,5.77,NP,1619841876
Dikson,73.5069,80.5464,22.3,92,100,11.32,RU,1619841637
Lorengau,-2.0226,147.2712,84.02,73,57,4.12,PG,1619841715
Cabo San Lucas,22.8909,-109.9124,73.0,70,0,1.01,MX,1619841551
Saint Paul Harbor,57.79,-152.4072,46.4,71,1,8.05,US,1619841640
Cidreira,-30.1811,-50.2056,67.89,75,0,17.36,BR,1619841660
Kapaa,22.0752,-159.319,75.2,78,90,12.66,US,1619841639
Tønder,54.9331,8.8667,42.01,90,100,7.87,DK,1619841877
New Norfolk,-42.7826,147.0587,68.0,51,99,3.0,AU,1619841649
Roald,62.5833,6.1333,35.6,87,15,3.44,NO,1619841771
La Orilla,17.9833,-102.2333,76.19,82,70,5.48,MX,1619841878
Sistranda,63.7256,8.834,33.8,93,40,3.44,NO,1619841786
Upernavik,72.7868,-56.1549,23.07,76,100,4.32,GL,1619841635
Sindor,62.8629,51.8905,33.21,96,100,12.53,RU,1619841878
Rāvar,31.2656,56.8055,72.52,38,100,3.29,IR,1619841879
Sobolevo,54.4299,31.8996,40.23,85,100,7.23,RU,1619841879
Norman Wells,65.282,-126.8329,44.6,39,20,11.5,CA,1619841723
Avera,33.194,-82.5271,64.4,63,1,6.91,US,1619841688
Nouadhibou,20.931,-17.0347,66.2,88,0,14.97,MR,1619841707
Port Elizabeth,-33.918,25.5701,55.4,71,0,9.22,ZA,1619841696
Champerico,14.3,-91.9167,66.99,97,34,5.14,GT,1619841880
Rognan,67.0953,15.3878,32.0,85,98,2.82,NO,1619841880
Mala Vyska,48.6431,31.6366,52.57,93,13,7.2,UA,1619841880
Shubarshi,48.5872,57.1869,56.88,37,18,14.05,KZ,1619841880
Kushmurun,52.4503,64.6311,51.64,38,5,4.52,KZ,1619841881
Cabedelo,-6.9811,-34.8339,75.2,94,75,5.75,BR,1619841704
Ancud,-41.8697,-73.8203,55.99,100,90,21.85,CL,1619841661
Ust'-Uda,54.1742,103.0304,48.96,51,99,1.92,RU,1619841881
Benguela,-12.5763,13.4055,78.24,80,87,0.83,AO,1619841882
Nishihara,26.1842,127.7558,82.4,74,75,14.97,JP,1619841750
Coalinga,36.1397,-120.3602,79.0,30,100,3.74,US,1619841882
Hasaki,35.7333,140.8333,73.4,43,75,9.22,JP,1619841540
Mogocha,53.7333,119.7667,53.89,29,28,7.43,RU,1619841882
Codrington,-38.2667,141.9667,73.65,39,100,13.8,AU,1619841648
Iqaluit,63.7506,-68.5145,35.6,75,90,13.8,CA,1619841693
Ozinki,51.1786,49.6769,54.19,49,99,15.73,RU,1619841883
Ust'-Tarka,55.5672,75.705,43.21,45,52,19.71,RU,1619841883
Nouakchott,18.0858,-15.9785,69.8,73,0,17.27,MR,1619841883
Puerto Ayora,-0.7393,-90.3518,74.17,83,2,6.78,EC,1619841602
Aragarças,-15.8975,-52.2508,69.12,92,100,4.21,BR,1619841884
Hede,33.7681,120.2517,65.23,42,8,9.62,CN,1619841884
Saskylakh,71.9167,114.0833,33.12,99,100,7.78,RU,1619841730
Cherskiy,68.75,161.3,22.14,82,81,3.44,RU,1619841749
Saint George,37.1041,-113.5841,82.0,16,1,2.59,US,1619841623
Padang,-0.9492,100.3543,86.0,74,20,4.61,ID,1619841653
São José da Coroa Grande,-8.8978,-35.1478,77.97,78,97,10.96,BR,1619841885
Iskateley,67.6803,53.1512,34.16,75,100,10.36,RU,1619841885
Pevek,69.7008,170.3133,18.3,84,100,15.21,RU,1619841748
Vila Velha,-20.3297,-40.2925,75.99,73,40,9.22,BR,1619841886
Yulara,-25.2406,130.9889,84.2,12,100,9.22,AU,1619841886
Kununurra,-15.7667,128.7333,93.2,24,0,5.75,AU,1619841667
Esperance,-33.8667,121.9,62.6,67,75,9.22,AU,1619841691
Dingle,10.9995,122.6711,90.82,54,90,10.94,PH,1619841886
Mount Isa,-20.7333,139.5,84.2,26,40,10.36,AU,1619841710
Morros,-9.4467,-46.3003,75.45,67,98,3.49,BR,1619841887
Qaqortoq,60.7167,-46.0333,48.2,29,75,29.93,GL,1619841716
Caravelas,-17.7125,-39.2481,75.85,62,100,12.71,BR,1619841887
Manatí,18.4275,-66.4921,73.0,94,2,5.35,PR,1619841887
Tabora,-5.0167,32.8,62.6,88,20,5.06,TZ,1619841888
Palauig,15.435,119.9045,85.87,67,53,9.37,PH,1619841888
San Patricio,28.017,-97.5169,73.4,94,90,10.36,US,1619841655
Port Shepstone,-30.7414,30.455,62.64,71,99,9.17,ZA,1619841888
Bredasdorp,-34.5322,20.0403,41.0,93,0,2.3,ZA,1619841674
Tucumã,-0.1833,-50.05,75.29,92,99,3.87,BR,1619841889
Ierapetra,35.01,25.7353,75.0,38,0,17.27,GR,1619841889
Talara,-4.5772,-81.2719,70.65,81,99,11.68,PE,1619841889
Ribeira Grande,38.5167,-28.7,59.85,83,100,12.57,PT,1619841659
Río Gallegos,-51.6226,-69.2181,37.4,87,0,10.36,AR,1619841890
Klaksvík,62.2266,-6.589,35.6,75,90,5.75,FO,1619841751
Bonavista,48.6499,-53.1147,36.0,93,100,5.75,CA,1619841890
Along,28.1667,94.7667,90.95,33,60,1.5,IN,1619841891
Biltine,14.5333,20.9167,82.53,12,28,9.17,TD,1619841891
Matamoros,25.5333,-103.25,68.0,42,75,20.71,MX,1619841891
Kyra,49.5776,111.9753,48.76,37,100,7.18,RU,1619841891
Acapulco de Juárez,16.8634,-99.8901,78.91,78,3,3.15,MX,1619841557
Isangel,-19.55,169.2667,84.2,70,75,5.75,VU,1619841734
Wanning,18.8003,110.3967,86.34,63,23,6.91,CN,1619841892
Caraquet,47.7941,-64.9386,39.2,87,100,5.75,CA,1619841892
Los Llanos de Aridane,28.6585,-17.9182,64.4,55,0,9.22,ES,1619841893
Tasiilaq,65.6145,-37.6368,24.8,93,90,6.91,GL,1619841694
Asău,46.4333,26.4,54.0,57,99,3.42,RO,1619841690
Port Lincoln,-34.7333,135.8667,71.15,54,64,22.41,AU,1619841686
Almaznyy,48.0448,40.045,53.6,87,0,2.24,RU,1619841893
Kloulklubed,7.0419,134.2556,84.2,79,75,10.36,PW,1619841893
Castro,-24.7911,-50.0119,49.12,98,30,4.36,BR,1619841497
Fallon,39.4735,-118.7774,73.99,16,75,8.05,US,1619841894
Berlevåg,70.8578,29.0864,33.8,64,97,25.79,NO,1619841783
Sīwah,29.2041,25.5195,78.4,16,1,8.1,EG,1619841894
Kaitangata,-46.2817,169.8464,57.99,52,76,8.01,NZ,1619841715
Jalu,29.0331,21.5482,81.01,15,0,10.8,LY,1619841656
Fortuna,40.5982,-124.1573,53.01,100,1,3.38,US,1619841702
Ilhabela,-23.7781,-45.3581,69.69,78,94,7.72,BR,1619841735
Leh,34.1667,77.5833,43.09,43,21,1.1,IN,1619841895
Dongsheng,39.8161,109.9776,57.58,26,82,8.97,CN,1619841895
Itacoatiara,-3.1431,-58.4442,73.26,96,100,0.98,BR,1619841896
Wattegama,6.7989,81.4808,84.2,89,20,3.44,LK,1619841663
Genhe,50.7833,121.5167,50.16,59,62,2.84,CN,1619841896
Jertih,5.7336,102.4897,87.8,79,40,8.05,MY,1619841896
Kristinestad,62.2743,21.376,33.96,79,56,8.43,FI,1619841897
Kariba,-16.5167,28.8,68.41,83,87,3.51,ZW,1619841897
Hualmay,-11.0964,-77.6139,66.0,90,8,7.16,PE,1619841685
Arecibo,18.4724,-66.7157,73.0,88,2,5.95,PR,1619841897
Tiznit Province,29.5833,-9.5,52.83,76,77,4.61,MA,1619841671
George Town,5.4112,100.3354,89.6,79,20,2.3,MY,1619841630
High Level,58.5169,-117.136,50.0,53,75,3.44,CA,1619841539
Nome,64.5011,-165.4064,24.8,74,90,18.41,US,1619841898
Aden,12.7794,45.0367,83.43,72,65,5.1,YE,1619841685
Kudahuvadhoo,2.6708,72.8944,83.1,69,100,3.29,MV,1619841898
Belaya,49.029,25.7706,55.99,78,89,4.81,UA,1619841899
College,64.8569,-147.8028,37.4,44,75,11.5,US,1619841717
Beringovskiy,63.05,179.3167,23.86,81,91,10.2,RU,1619841780
Avarua,-21.2078,-159.775,78.8,78,75,5.75,CK,1619841677
Siocon,7.7061,122.1353,86.5,69,61,3.71,PH,1619841899
Torbat-e Jām,35.244,60.6225,66.76,53,100,8.32,IR,1619841900
Santa Rosalía,27.3167,-112.2833,74.17,32,0,5.7,MX,1619841900
‘Āhuimanu,21.4447,-157.8378,78.8,83,75,11.5,US,1619841900
Vidalia,32.2177,-82.4135,71.6,43,1,6.91,US,1619841901
Ginda,30.6945,78.4932,77.9,22,33,4.45,IN,1619841901
Pangnirtung,66.1451,-65.7125,29.05,75,31,7.9,CA,1619841901
Cockburn Town,21.4612,-71.1419,78.46,73,69,13.33,TC,1619841902
Oranjemund,-28.55,16.4333,56.28,68,0,9.82,NA,1619841902
Acaraú,-2.8856,-40.12,76.15,87,25,8.86,BR,1619841902
Kalabo,-14.97,22.6814,66.58,86,100,3.89,ZM,1619841750
Talnakh,69.4865,88.3972,30.6,75,10,0.63,RU,1619841754
Poso,-1.3959,120.7524,87.35,62,69,5.88,ID,1619841903
Sioux Lookout,50.1001,-91.917,46.4,31,90,4.61,CA,1619841903
Coyhaique,-45.5752,-72.0662,48.2,93,20,2.3,CL,1619841708
Octeville,49.6261,-1.6435,43.0,93,0,2.3,FR,1619841904
Hirara,24.8,125.2833,82.4,74,75,13.8,JP,1619841904
Bitung,1.4451,125.1824,86.0,66,40,6.91,ID,1619841904
Jizan,17.3333,42.6667,78.8,78,40,3.27,SA,1619841904
Iralaya,15.0,-83.2333,80.02,75,15,10.42,HN,1619841905
Dunedin,-45.8742,170.5036,55.6,53,60,5.35,NZ,1619841675
Kavaratti,10.5669,72.642,85.17,71,27,7.27,IN,1619841905
Kumul,42.8,93.45,84.79,7,32,8.05,CN,1619841732
Kontagora,10.3999,5.4695,80.17,57,39,4.0,NG,1619841906
Henties Bay,-22.116,14.2845,55.99,94,0,3.0,NA,1619841906
Waingapu,-9.6567,120.2641,85.35,69,23,12.28,ID,1619841906
Mar del Plata,-38.0023,-57.5575,60.01,94,0,8.05,AR,1619841625
Ust-Kuyga,70.0167,135.6,33.44,97,67,3.85,RU,1619841907
Touros,-5.1989,-35.4608,73.4,94,0,4.61,BR,1619841907
Salalah,17.0151,54.0924,80.6,78,75,3.44,OM,1619841665
São Gabriel da Cachoeira,-0.1303,-67.0892,71.62,99,100,2.68,BR,1619841907
Karratha,-20.7377,116.8463,91.85,26,0,12.8,AU,1619841908
Kamenka,51.3223,42.7678,55.0,86,100,15.14,RU,1619841908
San Cristobal,7.7669,-72.225,65.01,91,100,1.77,VE,1619841650
Pisco,-13.7,-76.2167,66.2,82,6,3.38,PE,1619841749
East London,-33.0153,27.9116,59.0,67,0,9.22,ZA,1619841622
Gigmoto,13.7796,124.39,85.35,60,9,4.23,PH,1619841909
Egvekinot,66.3167,-179.1667,20.16,86,99,2.8,RU,1619841909
Souillac,-20.5167,57.5167,77.0,78,40,10.36,MU,1619841760
Geraldton,-28.7667,114.6,71.6,28,90,10.36,AU,1619841688
Chipinge,-20.1883,32.6236,60.48,95,97,1.97,ZW,1619841910
Kavieng,-2.5744,150.7967,84.43,68,28,6.82,PG,1619841713
Koumac,-20.5667,164.2833,78.8,63,93,9.98,NC,1619841910
Zholymbet,51.7433,71.7122,47.19,32,2,18.37,KZ,1619841910
Dārāb,28.7519,54.5444,71.17,42,100,0.6,IR,1619841911
Mossamedes,-15.1961,12.1522,75.13,70,0,5.5,AO,1619841690
Fomboni,-12.28,43.7425,82.0,75,13,6.44,KM,1619841911
Lucapa,-8.4192,20.7447,66.36,98,100,4.21,AO,1619841912
Kanganpur,30.7663,74.1231,93.97,22,49,2.3,PK,1619841714
Havøysund,70.9963,24.6622,35.6,93,75,13.8,NO,1619841912
Aklavik,68.2191,-135.0107,33.8,64,100,5.75,CA,1619841739
Vao,-22.6667,167.4833,74.28,74,100,25.08,NC,1619841710
Bubaque,11.2833,-15.8333,79.11,68,20,13.42,GW,1619841682
Ternate,0.8,127.4,84.74,69,72,4.72,ID,1619841913
Matane,48.8286,-67.522,46.4,75,100,8.05,CA,1619841913
Atherton,53.5237,-2.4935,39.0,94,26,3.58,GB,1619841913
Hong Kong,22.2855,114.1577,82.0,61,97,8.01,HK,1619841504
Atuona,-9.8,-139.0333,79.43,68,4,1.86,PF,1619841649
Carnarvon,-24.8667,113.6333,77.0,38,100,8.05,AU,1619841601
Faanui,-16.4833,-151.75,81.45,69,91,9.33,PF,1619841629
San Jerónimo,-11.9472,-75.2829,47.05,81,44,2.01,PE,1619841659
Mandalgovi,45.7625,106.2708,49.01,27,88,19.91,MN,1619841914
Winschoten,53.1442,7.0347,46.99,89,94,5.46,NL,1619841914
Tiksi,71.6872,128.8694,30.15,90,23,5.12,RU,1619841703
Neiafu,-18.65,-173.9833,84.2,74,20,6.91,TO,1619841915
Ormara,25.2088,64.6357,84.52,64,100,12.93,PK,1619841915
Necochea,-38.5473,-58.7368,55.0,84,0,11.01,AR,1619841915
Lompoc,34.6391,-120.4579,50.0,93,90,12.66,US,1619841612
North Bend,43.4065,-124.2243,55.99,100,90,3.44,US,1619841916
Nha Trang,12.25,109.1833,87.8,62,20,4.61,VN,1619841851
Le Vauclin,14.5452,-60.8388,75.2,83,75,1.14,MQ,1619841916
Rjukan,59.8789,8.5941,21.0,86,51,4.72,NO,1619841916
Colares,38.7992,-9.4469,55.0,71,43,17.02,PT,1619841917
Westport,41.1415,-73.3579,46.4,53,1,20.71,US,1619841917
Verkhoyansk,67.5447,133.385,33.91,90,89,1.52,RU,1619841917
Malakal,9.5334,31.6605,76.5,74,63,3.2,SS,1619841918
San Rafael,-34.6177,-68.3301,60.91,56,17,6.82,AR,1619841918
Port-Cartier,50.0334,-66.8654,42.01,87,100,2.51,CA,1619841687
Popondetta,-8.7537,148.2534,89.04,55,20,6.64,PG,1619841918
Gemeente Wageningen,51.9667,5.6667,42.01,93,9,4.61,NL,1619841919
Port Moresby,-9.4431,147.1797,89.6,58,40,17.27,PG,1619841848
Kot Samaba,28.5522,70.4684,97.74,19,0,3.71,PK,1619841919
Poum,-20.2333,164.0167,77.31,68,99,9.04,NC,1619841919
Nemuro,43.3236,145.575,44.6,61,75,13.8,JP,1619841735
Ilulissat,69.2167,-51.1,30.2,80,89,4.61,GL,1619841720
Keflavik,64.0049,-22.5624,32.0,69,20,20.71,IS,1619841920
Port Hedland,-20.3167,118.5667,96.8,16,0,8.05,AU,1619841920
Tuatapere,-46.1333,167.6833,55.99,73,42,4.0,NZ,1619841650
Katangli,51.7102,143.2326,35.02,89,100,18.75,RU,1619841763
Zaysan,47.4667,84.8667,46.22,65,100,16.91,KZ,1619841921
Fort Nelson,58.8053,-122.7002,55.4,33,75,11.5,CA,1619841921
Lakes Entrance,-37.8811,147.981,75.0,48,4,1.01,AU,1619841921
Coutances,49.05,-1.4333,41.0,81,1,3.44,FR,1619841922
Belmonte,-15.8631,-38.8828,71.6,94,75,4.61,BR,1619841770
Filingué,14.3521,3.3168,84.87,19,0,5.64,NE,1619841922
Mareeba,-17.0,145.4333,82.99,57,35,19.57,AU,1619841689
Honiara,-9.4333,159.95,83.88,71,92,2.95,SB,1619841683
Lavrentiya,65.5833,-171.0,23.79,80,70,1.92,RU,1619841674
Rawson,-43.3002,-65.1023,64.02,39,100,5.75,AR,1619841854
Faya,18.3851,42.4509,60.8,55,20,5.3,SA,1619841751
Williams Lake,52.1415,-122.1445,55.4,28,75,13.8,CA,1619841923
Mayskiy,47.6931,40.1025,53.6,87,0,2.24,RU,1619841923
Teahupoo,-17.8333,-149.2667,82.4,74,75,12.66,PF,1619841923
Wanlaweyn,2.6185,44.8938,79.61,74,80,5.35,SO,1619841924
Kortkeros,61.8106,51.5806,41.0,93,75,17.9,RU,1619841924
Taywarah,33.35,64.4167,56.98,40,96,4.97,AF,1619841924
Polovinnoye,54.7914,65.9864,46.81,40,21,9.22,RU,1619841925
Yankton,42.8711,-97.3973,66.99,39,1,10.36,US,1619841925
Inta,66.0317,60.1659,36.86,62,77,13.2,RU,1619841925
Mikuni,36.2171,136.1519,62.6,67,90,10.36,JP,1619841926
Acajutla,13.5928,-89.8275,70.0,100,5,5.12,SV,1619841926
Taoudenni,22.6783,-3.9836,75.16,54,65,4.54,ML,1619841926
Uvira,-3.4067,29.1458,70.25,84,100,2.89,CD,1619841926
Prince Rupert,54.3161,-130.3201,46.4,100,90,6.91,CA,1619841927
Zhigansk,66.7697,123.3711,30.61,91,100,5.75,RU,1619841706
Guadalupe y Calvo,26.1,-106.9667,38.12,88,88,5.57,MX,1619841927
Mehamn,71.0357,27.8492,35.6,69,40,25.32,NO,1619841778
Helong,42.5397,128.9972,50.83,56,100,5.46,CN,1619841928
Mnogovershinnyy,53.9353,139.9242,34.9,81,100,5.19,RU,1619841652
Vestmannaeyjar,63.4427,-20.2734,37.94,78,92,18.66,IS,1619841928
Kangaatsiaq,68.3065,-53.4641,32.59,74,94,3.83,GL,1619841929
Naze,28.3667,129.4833,78.8,73,40,21.85,JP,1619841929
Broome,42.2506,-75.833,36.0,93,90,16.11,US,1619841734
Kumo,10.0447,11.2122,84.38,44,51,9.01,NG,1619841929
Laas,46.6166,10.7002,54.0,93,75,3.44,IT,1619841930
Maha Sarakham,16.3333,103.6667,89.01,70,75,4.61,TH,1619841930
Dover,39.1582,-75.5244,51.8,32,20,23.02,US,1619841915
Hamilton,39.1834,-84.5333,48.2,49,1,4.61,US,1619841341
Pastavy,55.1168,26.8326,36.88,79,59,6.29,BY,1619841930
Hudson Bay,52.85,-102.3842,49.98,77,20,5.88,CA,1619841931
Zyryanka,65.75,150.85,37.83,74,100,6.02,RU,1619841676
Morón,-34.6534,-58.6198,66.0,86,7,1.99,AR,1619841727
Port Macquarie,-31.4333,152.9167,73.0,60,11,8.41,AU,1619841757
La Maddalena,41.2142,9.4083,57.2,94,0,8.05,IT,1619841931
Santiago de Cuba,20.0247,-75.8219,78.8,78,20,3.44,CU,1619841932
Cairns,-16.9167,145.7667,82.99,61,40,17.27,AU,1619841840
Kahului,20.8947,-156.47,80.6,65,40,19.57,US,1619841787
Alta Floresta,-9.8756,-56.0861,70.43,96,100,2.17,BR,1619841651
Te Anau,-45.4167,167.7167,51.35,70,66,1.41,NZ,1619841692
Shingū,33.7333,135.9833,66.2,88,75,10.36,JP,1619841932
Santa Vitória do Palmar,-33.5189,-53.3681,60.93,95,100,7.16,BR,1619841847
Tatarsk,55.219,75.9828,43.81,44,56,20.13,RU,1619841933
Bonthe,7.5264,-12.505,79.14,80,20,3.29,SL,1619841933
Praia,14.9215,-23.5087,71.6,78,75,12.66,CV,1619841742
Yagodnoye,62.55,149.6667,32.23,92,98,1.95,RU,1619841934
Pulaski,34.7668,-92.3001,62.6,72,40,2.86,US,1619841676
Lucea,18.451,-78.1736,78.8,78,20,2.3,JM,1619841934
Tigil',57.8,158.6667,44.53,72,92,7.99,RU,1619841934
Murindó,6.9848,-76.7544,74.07,97,100,1.05,CO,1619841935
Korla,41.7597,86.1469,79.32,11,0,7.0,CN,1619841677
Ulverstone,-41.15,146.1667,66.99,66,100,5.01,AU,1619841935
Arman',59.7,150.1667,37.51,75,100,3.38,RU,1619841784
Gīdolē,5.65,37.3667,55.67,91,98,2.51,ET,1619841936
Nanortalik,60.1432,-45.2371,36.43,71,77,11.3,GL,1619841711
Bereda,43.2686,-7.5406,44.01,100,96,1.01,ES,1619841721
Gushikawa,26.3544,127.8686,80.6,78,40,19.57,JP,1619841936
Campo Maior,-4.8278,-42.1686,73.9,86,84,2.55,BR,1619841936
Shaoyang,27.2315,111.4525,84.63,45,33,6.06,CN,1619841937
Bethel,41.3712,-73.414,45.0,66,27,1.99,US,1619841722
Ocean Springs,30.4113,-88.8278,71.6,83,40,5.75,US,1619841937
Cabreúva,-23.3075,-47.1328,60.8,82,0,14.97,BR,1619841668
Khovd,48.0056,91.6419,72.01,16,100,29.64,MN,1619841651
Corn Island,12.1694,-83.0418,80.87,69,5,11.7,NI,1619841938
Whitehorse,60.7161,-135.0538,46.4,39,75,10.36,CA,1619841938
Luxor,25.6989,32.6421,78.8,14,0,2.3,EG,1619841938
Bulgan,48.8125,103.5347,53.91,44,100,7.65,MN,1619841938
Province of Mantua,45.1667,10.7833,54.0,94,89,1.01,IT,1619841939
Cayenne,4.9333,-52.3333,77.0,94,90,6.17,GF,1619841737
Constitución,-35.3333,-72.4167,55.18,84,100,11.25,CL,1619841668
Mackenzie,55.2999,-123.1698,46.4,61,90,8.05,CA,1619841939
Adrar,20.5022,-10.0711,75.22,47,39,6.49,MR,1619841730
Mana,5.6592,-53.7767,75.27,92,97,6.73,GF,1619841940
São Filipe,14.8961,-24.4956,72.14,75,6,9.35,CV,1619841631
Shaygino,57.7675,46.8618,49.33,91,100,16.42,RU,1619841940
Cottonwood,34.7392,-112.0099,73.4,20,1,6.91,US,1619841940
Songyuan,45.1171,124.8568,59.11,23,92,13.31,CN,1619841941
Russell,32.3502,-85.1999,66.2,77,1,5.75,US,1619841941
Harper,4.375,-7.7169,79.41,81,100,3.83,LR,1619841941
Kiryat Gat,31.61,34.7642,72.0,59,0,6.91,IL,1619841647
Katsuura,35.1333,140.3,72.0,56,95,7.0,JP,1619841698
Jiwani,25.05,61.7417,84.15,66,98,10.0,PK,1619841942
Nyurba,63.2842,118.3319,41.0,82,100,8.41,RU,1619841725
Mbandaka,0.0487,18.2603,71.62,95,100,1.57,CD,1619841943
Tanout,14.9709,8.8879,78.6,7,0,8.84,NE,1619841943
Seybaplaya,19.65,-90.6667,80.6,78,1,5.75,MX,1619841943
Carauari,-4.8828,-66.8958,71.87,98,87,0.18,BR,1619841944
Jinchang,38.4953,102.1739,76.5,9,100,5.21,CN,1619841944
Uyuni,-20.4597,-66.825,38.28,24,12,9.6,BO,1619841944
Zaoyang,32.1272,112.7542,76.01,37,0,3.89,CN,1619841944
Pacific Grove,36.6177,-121.9166,54.0,94,100,3.0,US,1619841742
Youghal,51.95,-7.8506,39.99,92,10,3.0,IE,1619841945
Santa Cruz del Norte,23.1539,-81.9236,77.0,68,20,4.61,CU,1619841945
Madang,-5.2246,145.7966,84.7,71,68,7.78,PG,1619841946
Alofi,-19.0595,-169.9187,77.0,94,100,2.3,NU,1619841436
Alice Springs,-23.7,133.8833,86.0,14,78,5.75,AU,1619841740
Neryungri,56.6709,124.6491,35.37,92,100,0.49,RU,1619841946
San Miguel de Tucumán,-26.8241,-65.2226,57.2,88,12,5.75,AR,1619841946
Konëvo,62.1215,39.3192,35.8,65,19,7.4,RU,1619841947
Road Town,18.4167,-64.6167,78.01,85,0,14.27,VG,1619841947
Safaga,26.7292,33.9365,80.6,13,0,6.91,EG,1619841947
La Providencia,28.7167,-111.5833,80.01,29,0,3.0,MX,1619841948
Puerto Carreño,6.189,-67.4859,74.34,86,80,2.1,CO,1619841948
Alihe,50.5667,123.7167,54.27,49,60,1.72,CN,1619841948
Atar,20.5169,-13.0499,77.88,21,0,6.8,MR,1619841949
Fereydūnkenār,36.6864,52.5225,60.8,100,90,4.61,IR,1619841949
Namatanai,-3.6667,152.4333,84.88,67,81,2.3,PG,1619841634
Portland,45.5234,-122.6762,60.01,90,100,1.01,US,1619841452
Vila do Maio,15.1333,-23.2167,71.6,78,75,12.66,CV,1619841950
Kupang,-10.1667,123.5833,86.59,59,3,5.12,ID,1619841774
Bathsheba,13.2167,-59.5167,78.8,65,20,13.8,BB,1619841448
Bandarbeyla,9.4942,50.8122,83.19,71,100,2.24,SO,1619841675
Dzhida,50.6772,106.1806,47.59,53,100,3.87,RU,1619841950
Flagstaff,35.1981,-111.6513,57.99,30,1,3.2,US,1619841762
São Félix do Xingu,-6.6447,-51.995,70.32,94,93,2.21,BR,1619841655
Udachny,66.4167,112.4,33.33,94,100,10.04,RU,1619841684
Rønne,55.1009,14.7066,37.4,81,71,4.61,DK,1619841951
Ust-Nera,64.5667,143.2,37.94,97,98,2.24,RU,1619841951
Uray,60.1247,64.7758,41.58,39,27,5.21,RU,1619841952
Muromtsevo,56.3724,75.2418,42.1,52,36,15.97,RU,1619841952
Narsaq,60.9167,-46.05,48.2,29,75,29.93,GL,1619841680
Kouango,4.9934,19.9619,70.47,95,100,3.47,CF,1619841953
Cortez,37.3489,-108.5859,55.99,28,1,8.05,US,1619841953
Mitsamiouli,-11.3847,43.2844,81.36,76,6,5.01,KM,1619841953
Locri,38.2414,16.2623,62.6,88,90,8.05,IT,1619841953
San Luis,-33.295,-66.3356,58.71,50,21,10.36,AR,1619841937
Itarema,-2.9248,-39.9167,75.78,89,20,8.68,BR,1619841698
Meadow Lake,34.8014,-106.5436,64.4,24,1,9.22,US,1619841747
Tual,-5.6667,132.75,83.1,74,27,12.35,ID,1619841666
Warrnambool,-38.3833,142.4833,72.0,53,100,4.0,AU,1619841954
Lhokseumawe,5.1801,97.1507,85.06,67,97,3.47,ID,1619841954
Oistins,13.0667,-59.5333,78.8,65,40,13.8,BB,1619841955
Baykit,61.67,96.37,38.91,94,100,5.39,RU,1619841955
Yumen,40.2833,97.2,77.65,6,100,6.89,CN,1619841427
Kasongo-Lunda,-6.4667,16.8167,70.54,99,100,1.88,CD,1619841773
Okha,53.5739,142.9478,35.08,82,100,10.74,RU,1619841956
Uglegorsk,49.0833,142.0333,40.48,75,100,21.23,RU,1619841956
Grindavik,63.8424,-22.4338,32.0,69,20,20.71,IS,1619841785
Nuuk,64.1835,-51.7216,32.0,100,20,13.8,GL,1619841956
Boende,-0.2167,20.8667,70.27,96,100,1.68,CD,1619841957
Lakatoro,-16.0999,167.4164,82.96,69,34,11.39,VU,1619841957
Half Moon Bay,37.4636,-122.4286,55.4,93,90,12.66,US,1619841957
Camacha,33.0833,-16.3333,60.8,67,40,6.91,PT,1619841958
Wodonga,-36.1167,146.8833,75.0,49,4,2.3,AU,1619841958
Zhezkazgan,47.8043,67.7144,57.09,30,0,4.99,KZ,1619841958
Saint-Pierre,-21.3393,55.4781,75.99,73,0,9.53,RE,1619841716
Strezhevoy,60.7333,77.5889,39.2,65,40,11.18,RU,1619841959
Teknāf,20.8624,92.3058,88.23,58,26,5.75,BD,1619841959
Grand-Santi,4.25,-54.3833,72.23,99,100,1.9,GF,1619841959
Flinders,-34.5833,150.8552,73.99,72,15,3.0,AU,1619841960
Kokuy,52.2037,117.5529,55.24,34,1,6.46,RU,1619841960
Governador Valadares,-18.8511,-41.9494,65.88,85,93,2.33,BR,1619841960
Sechura,-5.5569,-80.8222,71.28,72,46,12.84,PE,1619841686
Severnyy,50.677,36.5532,55.4,82,40,8.95,RU,1619841961
Leshukonskoye,64.8989,45.7622,35.22,86,100,0.76,RU,1619841961
Komatipoort,-25.4332,31.9548,64.99,76,94,1.99,ZA,1619841961
Springville,40.1652,-111.6107,68.0,59,1,6.91,US,1619841962
Sinjār,36.3209,41.8754,65.59,52,10,13.24,IQ,1619841851
Palu,-0.8917,119.8707,88.38,61,86,2.98,ID,1619841962
Impfondo,1.6381,18.0667,70.99,97,100,3.06,CG,1619841620
Puerto del Rosario,28.5004,-13.8627,62.6,59,0,9.22,ES,1619841962
Blairmore,49.6,-114.4353,55.4,47,5,9.22,CA,1619841963
Kawalu,-7.3817,108.2082,88.2,54,90,3.74,ID,1619841963
Honningsvåg,70.9821,25.9704,35.6,69,40,25.32,NO,1619841963
Tawang Town,27.5833,91.8667,60.37,42,53,6.44,IN,1619841964
Deputatsky,69.3,139.9,26.6,87,100,4.09,RU,1619841734
Forio,40.7342,13.8646,68.0,78,100,7.0,IT,1619841964
Tibagi,-24.5094,-50.4136,52.43,96,23,3.38,BR,1619841964
Suntar,62.1444,117.6319,37.54,95,100,6.29,RU,1619841965
Panguna,-6.3164,155.4848,76.59,83,57,1.59,PG,1619841965
Goba,7.0167,39.9833,50.97,87,45,2.68,ET,1619841965
Yantzaza,-3.8278,-78.7594,64.71,98,89,1.03,EC,1619841966
Margate,51.3813,1.3862,39.99,81,9,5.82,GB,1619841866
Baltiysk,54.6538,19.911,43.0,81,0,6.71,RU,1619841966
Buraidah,26.326,43.975,68.0,40,0,2.3,SA,1619841966
Singkang,2.1006,102.7994,84.2,79,20,5.75,MY,1619841967
Ouésso,1.6136,16.0517,70.45,90,100,0.29,CG,1619841967
Basco,20.4487,121.9702,80.02,73,1,5.55,PH,1619841967
Port Hardy,50.6996,-127.4199,50.0,93,90,5.75,CA,1619841715
Albacete,38.8333,-2.0,48.2,81,0,8.05,ES,1619841968
Mahon,39.8885,4.2658,60.8,94,75,8.05,ES,1619841968
Warsaw,52.2298,21.0118,46.0,93,20,3.44,PL,1619841200
Jacareacanga,-6.2222,-57.7528,72.95,97,100,1.25,BR,1619841968
Ulladulla,-35.35,150.4667,73.4,53,75,8.05,AU,1619841969
Desdunes,19.2955,-72.646,77.09,73,16,4.81,HT,1619841969
Tamboril,19.4854,-70.611,75.2,88,20,6.91,DO,1619841969
Lüderitz,-26.6481,15.1594,65.25,38,0,12.1,NA,1619841599
Aquiraz,-3.9014,-38.3911,77.0,94,20,2.3,BR,1619841970
Chifeng,42.2683,118.9636,48.02,26,66,16.51,CN,1619841970
Lincoln,40.8,-96.667,71.6,30,1,13.8,US,1619841814
Ust-Tsilma,65.441,52.1498,37.04,74,100,9.78,RU,1619841970
Lufilufi,-13.8745,-171.5986,93.2,66,40,12.66,WS,1619841971
Quatre Cocos,-20.2078,57.7625,79.0,78,40,10.36,MU,1619841691
Broken Hill,-31.95,141.4333,77.0,31,100,17.27,AU,1619841971
Adolfo López Mateos,28.4667,-107.3,47.01,67,97,4.32,MX,1619841971
Viedma,-40.8135,-62.9967,65.55,49,100,15.32,AR,1619841788
Nara,34.6851,135.8049,77.0,50,75,17.27,JP,1619841698
Tahe,52.3333,124.7333,50.14,39,71,4.81,CN,1619841972
Iquitos,-3.7481,-73.2472,75.2,94,40,3.44,PE,1619841902
Chokurdakh,70.6333,147.9167,22.69,82,9,5.3,RU,1619841615
Jamiltepec,16.2833,-97.8167,73.69,81,26,2.1,MX,1619841972
Baláo,-2.9167,-79.8167,73.76,92,100,2.46,EC,1619841973
Gagino,55.2314,45.0339,52.43,84,100,21.39,RU,1619841973
Sânmartin,46.2667,25.9333,54.0,56,100,0.92,RO,1619841973
Shache,38.4167,77.2406,81.73,12,5,16.8,CN,1619841974
Zhalantun,48.0,122.7167,53.74,44,62,10.13,CN,1619841974
Kuytun,54.3419,101.5036,48.92,53,100,2.13,RU,1619841974
Narasannapeta,18.4167,84.05,90.3,51,0,10.42,IN,1619841975
Sayula,19.8667,-103.6167,64.71,72,99,2.71,MX,1619841975
Sokolo,14.7328,-6.1219,85.66,41,44,15.17,ML,1619841975
Vila Franca do Campo,37.7167,-25.4333,51.8,76,20,2.3,PT,1619841975
Quelimane,-17.8786,36.8883,77.0,88,75,1.21,MZ,1619841976
Nioro,13.35,-15.75,76.73,39,55,8.77,GM,1619841976
Lishu,43.3047,124.3278,59.43,19,94,11.01,CN,1619841977
Angoche,-16.2325,39.9086,74.97,90,3,3.71,MZ,1619841977
Batagay,67.6333,134.6333,33.64,87,98,1.28,RU,1619841977
Gao,16.6362,1.637,83.55,15,0,11.18,ML,1619841862
Havelock,34.8791,-76.9013,69.01,54,59,1.01,US,1619841978
Petawawa,45.9001,-77.3328,33.8,64,90,19.57,CA,1619841795
Tomatlán,19.9333,-105.25,70.32,84,44,1.05,MX,1619841978
Arrondissement de Toul,48.6667,5.9167,48.2,93,100,2.3,FR,1619841978
Pajapan,18.25,-94.7,79.56,75,69,4.16,MX,1619841979
Saint Augustine,29.8947,-81.3145,75.99,83,1,8.05,US,1619841979
Äänekoski,62.6946,25.818,34.0,80,0,2.3,FI,1619841979
Hambantota,6.1241,81.1185,84.2,89,20,3.44,LK,1619841980
Doaba,33.4244,70.7364,82.0,30,29,4.9,PK,1619841980
Somerset,40.5668,-74.5496,48.0,49,75,12.66,US,1619841806
Sabha,27.0377,14.4283,77.07,8,0,8.93,LY,1619841962
Weligama,5.9667,80.4167,85.28,70,18,1.97,LK,1619841980
Belle Fourche,44.6714,-103.8522,66.0,41,1,5.75,US,1619841981
Barcelos,41.5388,-8.6151,46.99,81,0,5.75,PT,1619841966
Guiyang,26.5833,106.7167,77.0,50,0,6.71,CN,1619841981
Shawville,45.6001,-76.4827,36.0,83,96,8.01,CA,1619841981
Likasi,-10.9814,26.7333,61.81,98,99,3.71,CD,1619841982
Trairi,-3.2778,-39.2689,76.21,89,90,6.93,BR,1619841982
Petrolia,42.8668,-82.1498,41.0,81,1,5.75,CA,1619841855
Pavlovskiy,57.8424,54.8436,51.39,57,99,21.27,RU,1619841982
Inhambane,-23.865,35.3833,70.05,93,93,8.3,MZ,1619841983
Bilibino,68.0546,166.4372,20.8,70,83,2.62,RU,1619841983
Clyde River,70.4692,-68.5914,17.6,93,90,4.61,CA,1619841685
City of San Pedro,14.35,121.0167,93.2,52,20,5.75,PH,1619841984
Altos del Rosario,8.7944,-74.1658,73.36,96,100,2.53,CO,1619841984
Dillon,34.4166,-79.3712,66.0,55,1,5.75,US,1619841668
Bilma,18.6853,12.9164,79.43,7,0,8.88,NE,1619841625
Shāhgarh,24.3167,79.1333,100.51,11,45,6.67,IN,1619841984
Warri,5.5167,5.75,77.63,90,98,3.15,NG,1619841985
Nova Era,-19.75,-43.0375,66.2,94,0,3.44,BR,1619841985
Tupik,54.4253,119.9327,46.11,65,74,5.84,RU,1619841985
Casper,42.8666,-106.3131,66.99,38,1,8.05,US,1619841717
Macapá,0.0389,-51.0664,78.8,94,0,1.14,BR,1619841986
Thal,35.4791,72.2439,62.58,40,2,2.51,PK,1619841962
Chhātak,25.0333,91.6667,92.75,45,2,4.41,BD,1619841986
Santa Cruz de la Sierra,-17.8,-63.1667,60.8,88,14,3.44,BO,1619841961
Pinega,64.7001,43.3936,35.62,79,100,1.54,RU,1619841987
Zverinogolovskoye,54.4586,64.8542,48.38,42,63,7.78,RU,1619841987
Micheweni,-4.9667,39.8333,78.15,86,96,8.9,TZ,1619841987
Xining,36.6167,101.7667,66.99,32,92,3.51,CN,1619841745
Mount Gambier,-37.8333,140.7667,69.8,49,40,12.66,AU,1619841633
Fare,-16.7,-151.0167,81.5,69,89,10.76,PF,1619841988
Eureka,40.8021,-124.1637,53.01,92,100,3.4,US,1619841988
Kwinana,-32.25,115.7667,71.01,40,1,5.75,AU,1619841988
Laguna de Perlas,12.3429,-83.6712,79.05,71,10,8.77,NI,1619841989
Saldanha,-33.0117,17.9442,48.2,81,0,2.3,ZA,1619841718
Flin Flon,54.7682,-101.865,33.35,94,43,4.97,CA,1619841989
Aykhal,66.0,111.5,31.24,93,100,13.09,RU,1619841779
Puerto Ayacucho,5.6639,-67.6236,73.24,91,92,1.3,VE,1619841989
Znamenskoye,57.1281,73.8282,38.75,63,49,13.62,RU,1619841990
Rørvik,64.8621,11.2373,38.3,56,91,12.48,NO,1619841990
Levelland,33.5873,-102.378,57.2,72,90,5.75,US,1619841990
Elbistan,38.2059,37.1983,55.83,62,0,4.94,TR,1619841991
Chany,55.3121,76.7647,43.74,48,100,20.54,RU,1619841991
St. George's,12.0564,-61.7485,78.8,83,75,9.22,GD,1619841773
Zahnitkiv,48.0446,28.8958,51.01,93,94,3.85,UA,1619841991
Toccoa,34.5773,-83.3324,66.2,39,1,4.32,US,1619841992
Agadez,19.75,10.25,76.01,8,0,2.59,NE,1619841689
Beloha,-25.1667,45.05,70.0,80,1,2.66,MG,1619841992
Altay,47.8667,88.1167,59.9,64,100,12.53,CN,1619841545
Puerto Cabezas,14.0351,-83.3888,78.08,78,10,8.08,NI,1619841992
Tsimmerbude,54.675,20.1347,43.0,81,0,6.71,RU,1619841993
Muros,42.7762,-9.0603,39.99,92,9,6.89,ES,1619841674
Porosozero,62.7191,32.727,29.77,66,23,9.04,RU,1619841993
Tulagi,-9.0996,160.1476,82.9,66,68,2.62,SB,1619841994
Springfield,37.2153,-93.2982,61.0,63,1,5.82,US,1619841492
Thurso,58.5927,-3.5259,32.0,93,20,4.61,GB,1619841994
Pathein,16.7833,94.7333,93.16,44,26,4.34,MM,1619841994
Okhotsk,59.3833,143.3,36.05,78,100,3.09,RU,1619841995
General Roca,-39.0333,-67.5833,53.6,71,0,6.91,AR,1619841995
Santander,43.4647,-3.8044,48.99,87,90,4.61,ES,1619841995
Milcoiu,45.05,24.4667,53.06,84,94,3.8,RO,1619841996
Srednekolymsk,67.45,153.6833,29.62,77,8,12.01,RU,1619841996
Lata,40.1629,-8.3327,48.0,86,42,2.39,PT,1619841996
Águia Branca,-18.9831,-40.7403,63.32,91,44,3.11,BR,1619841997
Mahébourg,-20.4081,57.7,77.0,78,40,10.36,MU,1619841682
Mosquera,4.7059,-74.2302,53.6,94,75,2.3,CO,1619841997
Da Lat,11.9465,108.4419,79.68,47,60,3.87,VN,1619841997
Yangi Marg`ilon,40.4272,71.7189,69.8,46,58,9.22,UZ,1619841701
Mandera,3.9366,41.867,81.43,66,77,8.68,KE,1619841954
Newry,54.1784,-6.3374,36.0,83,10,1.01,GB,1619841998
Sitka,57.0531,-135.33,44.6,93,90,4.61,US,1619841676
São João da Barra,-21.6403,-41.0511,66.96,78,100,8.55,BR,1619841998
Labuhan,-6.8844,112.2051,86.27,65,46,7.25,ID,1619841694
Iquique,-20.2208,-70.1431,62.6,67,0,1.86,CL,1619841746
Sur,22.5667,59.5289,86.25,49,61,3.83,OM,1619841705
Tomé,-36.6167,-72.95,55.4,100,90,14.97,CL,1619841999
Plaridel,14.8872,120.8572,93.2,52,20,5.75,PH,1619841999
Coahuayana Viejo,18.7333,-103.6833,72.45,91,77,1.39,MX,1619841678
